,nombre,sub_category,latitud,longitud,distance,location,city,category
0,Viatran,Design Studio,30.3484,-97.706521,1439,"{'type': 'Point', 'coordinates': [30.3484, -97.706521]}",Austin,Design Studio
1,Solid Prototype,Design Studio,30.351604461669922,-97.7101058959961,1637,"{'type': 'Point', 'coordinates': [30.351604461669922, -97.7101058959961]}",Austin,Design Studio
2,Cedar International Academy,Preschool,30.34842,-97.69565300000001,731,"{'type': 'Point', 'coordinates': [30.34842, -97.69565300000001]}",Austin,Preschool
3,Cedar International Academy,Preschool,30.34842,-97.69565300000001,731,"{'type': 'Point', 'coordinates': [30.34842, -97.69565300000001]}",Austin,Elementary School
4,Mollie Barrington Elementary School,Elementary School,30.36105393643033,-97.69441287501408,712,"{'type': 'Point', 'coordinates': [30.36105393643033, -97.69441287501408]}",Austin,Elementary School
5,T.A. Brown School,Elementary School,30.346457804486768,-97.70704491225996,1597,"{'type': 'Point', 'coordinates': [30.346457804486768, -97.70704491225996]}",Austin,Elementary School
6,Guerrero-Thompson Elementary,Elementary School,30.363843200028168,-97.6921175002373,1024,"{'type': 'Point', 'coordinates': [30.363843200028168, -97.6921175002373]}",Austin,Elementary School
7,Wooldridge Elementary,Elementary School,30.36372007584484,-97.71064845986616,1933,"{'type': 'Point', 'coordinates': [30.36372007584484, -97.71064845986616]}",Austin,Elementary School
8,Bernice Hart Elementary,Elementary School,30.342446999999996,-97.688041,1460,"{'type': 'Point', 'coordinates': [30.342446999999996, -97.688041]}",Austin,Elementary School
9,Sunguard,Tech Startup,30.344360684975715,-97.69690447535906,1199,"{'type': 'Point', 'coordinates': [30.344360684975715, -97.69690447535906]}",Austin,Tech Startup
10,UPG Video,Tech Startup,30.345261675659298,-97.71132038431534,2014,"{'type': 'Point', 'coordinates': [30.345261675659298, -97.71132038431534]}",Austin,Tech Startup
11,Grande Communications,Tech Startup,30.346933177437883,-97.71422356367111,2176,"{'type': 'Point', 'coordinates': [30.346933177437883, -97.71422356367111]}",Austin,Tech Startup
12,Pole to Win America Austin Office,Tech Startup,30.337876940816923,-97.68344558447731,2105,"{'type': 'Point', 'coordinates': [30.337876940816923, -97.68344558447731]}",Austin,Tech Startup
13,Lasso,Tech Startup,30.344941,-97.713385,2203,"{'type': 'Point', 'coordinates': [30.344941, -97.713385]}",Austin,Tech Startup
14,Micross Components,Tech Startup,30.3437413,-97.67711273,1987,"{'type': 'Point', 'coordinates': [30.3437413, -97.67711273]}",Austin,Tech Startup
15,Together Mobile,Tech Startup,30.35190756008374,-97.7083563717438,1466,"{'type': 'Point', 'coordinates': [30.35190756008374, -97.7083563717438]}",Austin,Tech Startup
16,KLD Energy Technologies,Tech Startup,30.357101025965445,-97.69343216297567,266,"{'type': 'Point', 'coordinates': [30.357101025965445, -97.69343216297567]}",Austin,Tech Startup
17,Lineback ET Headquaters,Tech Startup,30.366194,-97.704878,1685,"{'type': 'Point', 'coordinates': [30.366194, -97.704878]}",Austin,Tech Startup
18,eBook Architects,Tech Startup,30.345577868688704,-97.71246042244613,2090,"{'type': 'Point', 'coordinates': [30.345577868688704, -97.71246042244613]}",Austin,Tech Startup
19,In Hand Media,Tech Startup,30.34464,-97.713054,2192,"{'type': 'Point', 'coordinates': [30.34464, -97.713054]}",Austin,Tech Startup
20,Blue Light,Tech Startup,30.344985029278423,-97.70871162246858,1823,"{'type': 'Point', 'coordinates': [30.344985029278423, -97.70871162246858]}",Austin,Tech Startup
21,HubCiti,Tech Startup,30.344693,-97.712949,2180,"{'type': 'Point', 'coordinates': [30.344693, -97.712949]}",Austin,Tech Startup
22,Zilker Social,Tech Startup,30.352171,-97.708139,1439,"{'type': 'Point', 'coordinates': [30.352171, -97.708139]}",Austin,Tech Startup
23,Umbrella Media,Tech Startup,30.343835688571833,-97.7061983948391,1722,"{'type': 'Point', 'coordinates': [30.343835688571833, -97.7061983948391]}",Austin,Tech Startup
25,Chabelo's Bar,Bar,30.352285385131836,-97.69281768798828,276,"{'type': 'Point', 'coordinates': [30.352285385131836, -97.69281768798828]}",Austin,Nightlife Spot
26,Buffalo Wild Wings,Wings Joint,30.33819528228752,-97.7019906827536,2013,"{'type': 'Point', 'coordinates': [30.33819528228752, -97.7019906827536]}",Austin,Nightlife Spot
27,Applebee's Grill + Bar,American Restaurant,30.33763898,-97.70205255,2072,"{'type': 'Point', 'coordinates': [30.33763898, -97.70205255]}",Austin,Nightlife Spot
28,Milenkos Liquor Store,Wine Bar,30.35548973083496,-97.7039566040039,1013,"{'type': 'Point', 'coordinates': [30.35548973083496, -97.7039566040039]}",Austin,Nightlife Spot
29,Jekyll And Hyde Billards,Bar,30.36374192057265,-97.69543070957226,1023,"{'type': 'Point', 'coordinates': [30.36374192057265, -97.69543070957226]}",Austin,Nightlife Spot
30,Texas Sports Bar,Sports Bar,30.360734939575195,-97.6878890991211,856,"{'type': 'Point', 'coordinates': [30.360734939575195, -97.6878890991211]}",Austin,Nightlife Spot
31,SeoulJu Korean Kitchen & Bar,Korean Restaurant,30.36471,-97.6945,1117,"{'type': 'Point', 'coordinates': [30.36471, -97.6945]}",Austin,Nightlife Spot
32,Centennial Liquor Stop,Wine Bar,30.37156867980957,-97.69135284423828,1887,"{'type': 'Point', 'coordinates': [30.37156867980957, -97.69135284423828]}",Austin,Nightlife Spot
33,Club Tierra Caliente,Bar,30.343857459017034,-97.70486758695976,1632,"{'type': 'Point', 'coordinates': [30.343857459017034, -97.70486758695976]}",Austin,Nightlife Spot
34,Meltzer Restaurant and Pub,Restaurant,30.337329912672917,-97.70237378950287,2116,"{'type': 'Point', 'coordinates': [30.337329912672917, -97.70237378950287]}",Austin,Nightlife Spot
35,Rodeo Night Club,Bar,30.34412384033203,-97.71395111083984,2295,"{'type': 'Point', 'coordinates': [30.34412384033203, -97.71395111083984]}",Austin,Nightlife Spot
36,Tacolote,Bar,30.364038467407227,-97.6960678100586,1068,"{'type': 'Point', 'coordinates': [30.364038467407227, -97.6960678100586]}",Austin,Nightlife Spot
37,Los Buhos,Mexican Restaurant,30.369027,-97.706472,2026,"{'type': 'Point', 'coordinates': [30.369027, -97.706472]}",Austin,Nightlife Spot
38,college roadhouse,Bar,30.364811358731206,-97.69455124090122,1129,"{'type': 'Point', 'coordinates': [30.364811358731206, -97.69455124090122]}",Austin,Nightlife Spot
39,Tejano Ranch,Nightclub,30.344669510934988,-97.71380451545076,2253,"{'type': 'Point', 'coordinates': [30.344669510934988, -97.71380451545076]}",Austin,Nightlife Spot
40,Rodeo Nightclub,Nightclub,30.364290576409495,-97.69507552604398,1078,"{'type': 'Point', 'coordinates': [30.364290576409495, -97.69507552604398]}",Austin,Nightlife Spot
41,Club Apple,Bar,30.33772051334381,-97.70209193229675,2065,"{'type': 'Point', 'coordinates': [30.33772051334381, -97.70209193229675]}",Austin,Nightlife Spot
42,Puff N Stuff,Strip Club,30.343593,-97.698131,1317,"{'type': 'Point', 'coordinates': [30.343593, -97.698131]}",Austin,Nightlife Spot
43,Club Rodeo,Nightclub,30.364245,-97.694548,1066,"{'type': 'Point', 'coordinates': [30.364245, -97.694548]}",Austin,Nightlife Spot
44,Mr Natural,Vegetarian / Vegan Restaurant,30.360249,-97.692789,619,"{'type': 'Point', 'coordinates': [30.360249, -97.692789]}",Austin,Vegetarian / Vegan Restaurant
45,Emancipet,Veterinarian,30.340583,-97.692872,1573,"{'type': 'Point', 'coordinates': [30.340583, -97.692872]}",Austin,Veterinarian
46,Pet Loss Center,Pet Service,30.346065000000003,-97.675325,1988,"{'type': 'Point', 'coordinates': [30.346065000000003, -97.675325]}",Austin,Pet Service
47,LIGALUX,Design Studio,53.567143471870736,9.953387316186628,578,"{'type': 'Point', 'coordinates': [53.567143471870736, 9.953387316186628]}",Hamburg,Design Studio
48,Nerdindustries,Tech Startup,53.57883080716464,9.946013679139408,1965,"{'type': 'Point', 'coordinates': [53.57883080716464, 9.946013679139408]}",Hamburg,Design Studio
49,Hemme - Zeitloses Design,Design Studio,53.55253219604492,9.956469535827637,1110,"{'type': 'Point', 'coordinates': [53.55253219604492, 9.956469535827637]}",Hamburg,Design Studio
50,All Things Letters,Design Studio,53.54711,9.975704,2101,"{'type': 'Point', 'coordinates': [53.54711, 9.975704]}",Hamburg,Design Studio
51,LIV,Design Studio,53.579121911537506,9.956514912770784,1851,"{'type': 'Point', 'coordinates': [53.579121911537506, 9.956514912770784]}",Hamburg,Design Studio
52,Steen,Design Studio,53.552979749870005,9.972121132301684,1443,"{'type': 'Point', 'coordinates': [53.552979749870005, 9.972121132301684]}",Hamburg,Design Studio
53,Flow4,Design Studio,53.560905,9.926796,2024,"{'type': 'Point', 'coordinates': [53.560905, 9.926796]}",Hamburg,Design Studio
54,ps145 | Büro für schöne Bekanntmachung,Design Studio,53.559864,9.956979,294,"{'type': 'Point', 'coordinates': [53.559864, 9.956979]}",Hamburg,Design Studio
55,Freytags Kommunikationsdesign,Design Studio,53.5501823425293,9.948277473449707,1495,"{'type': 'Point', 'coordinates': [53.5501823425293, 9.948277473449707]}",Hamburg,Design Studio
56,Blutkarpfen,Design Studio,53.55764814163315,9.968978978942191,942,"{'type': 'Point', 'coordinates': [53.55764814163315, 9.968978978942191]}",Hamburg,Design Studio
57,Lebendraum,Design Studio,53.553434,9.95796,1010,"{'type': 'Point', 'coordinates': [53.553434, 9.95796]}",Hamburg,Design Studio
58,HPS Hamburger Print Service,Design Studio,53.565306868981224,9.980507029393168,1565,"{'type': 'Point', 'coordinates': [53.565306868981224, 9.980507029393168]}",Hamburg,Design Studio
59,SØNXEN Kommunikationsdesign,Design Studio,53.557445,9.96158,629,"{'type': 'Point', 'coordinates': [53.557445, 9.96158]}",Hamburg,Design Studio
60,Brandfriend PR,Design Studio,53.55850956721185,9.932095090103202,1724,"{'type': 'Point', 'coordinates': [53.55850956721185, 9.932095090103202]}",Hamburg,Design Studio
61,The Integer Group Hamburg,Design Studio,53.54785553226704,9.967818260192871,1772,"{'type': 'Point', 'coordinates': [53.54785553226704, 9.967818260192871]}",Hamburg,Design Studio
62,Nähschule St. Pauli - Rosi Bätz,Design Studio,53.55635,9.965845,887,"{'type': 'Point', 'coordinates': [53.55635, 9.965845]}",Hamburg,Design Studio
63,Studioseminar,Design Studio,53.568866,9.98105,1722,"{'type': 'Point', 'coordinates': [53.568866, 9.98105]}",Hamburg,Design Studio
64,pointon . neue Kommunikation,Design Studio,53.546354,9.942753,2038,"{'type': 'Point', 'coordinates': [53.546354, 9.942753]}",Hamburg,Design Studio
65,Goldfuchs Studio,Design Studio,53.549725,9.947785,1555,"{'type': 'Point', 'coordinates': [53.549725, 9.947785]}",Hamburg,Design Studio
66,Lux von Morgen,Design Studio,53.55345,9.983086,1980,"{'type': 'Point', 'coordinates': [53.55345, 9.983086]}",Hamburg,Design Studio
67,Mount Ray Studio,Design Studio,53.56204383184578,9.926494395733265,2037,"{'type': 'Point', 'coordinates': [53.56204383184578, 9.926494395733265]}",Hamburg,Design Studio
68,Freak Haus,Design Studio,53.55553384843329,9.93643715446792,1582,"{'type': 'Point', 'coordinates': [53.55553384843329, 9.93643715446792]}",Hamburg,Design Studio
69,Emily Kindergarten,Nursery School,53.557486498934615,9.958556231361598,564,"{'type': 'Point', 'coordinates': [53.557486498934615, 9.958556231361598]}",Hamburg,Nursery School
70,Kinderstadt Kita - Ottensen,Nursery School,53.562806,9.927297,1984,"{'type': 'Point', 'coordinates': [53.562806, 9.927297]}",Hamburg,Nursery School
71,Sterni Park,Nursery School,53.560231,9.954684,306,"{'type': 'Point', 'coordinates': [53.560231, 9.954684]}",Hamburg,Nursery School
72,Waldorfkindergarten,Daycare,53.574406,9.972153,1649,"{'type': 'Point', 'coordinates': [53.574406, 9.972153]}",Hamburg,Nursery School
73,Stapellauf,Nursery School,53.58204234633255,9.969870886132389,2328,"{'type': 'Point', 'coordinates': [53.58204234633255, 9.969870886132389]}",Hamburg,Nursery School
74,Musikkindergarten,Nursery School,53.56262053054844,9.96739956034854,667,"{'type': 'Point', 'coordinates': [53.56262053054844, 9.96739956034854]}",Hamburg,Nursery School
75,Paula & Max,Nursery School,53.55750282585707,9.94905219129467,779,"{'type': 'Point', 'coordinates': [53.55750282585707, 9.94905219129467]}",Hamburg,Nursery School
76,Deutsch-Chinesischer Kindergarten,Nursery School,53.568638439036974,9.95359810298966,725,"{'type': 'Point', 'coordinates': [53.568638439036974, 9.95359810298966]}",Hamburg,Nursery School
77,Kita Kohlhöfen,Nursery School,53.55318664683582,9.979998316839257,1824,"{'type': 'Point', 'coordinates': [53.55318664683582, 9.979998316839257]}",Hamburg,Nursery School
78,SterniPark Weidenallee,Nursery School,53.567199912032024,9.964867167688798,723,"{'type': 'Point', 'coordinates': [53.567199912032024, 9.964867167688798]}",Hamburg,Nursery School
79,Wabe Kita Stahltwiete,Nursery School,53.561813,9.925124,2128,"{'type': 'Point', 'coordinates': [53.561813, 9.925124]}",Hamburg,Nursery School
80,Kita Bucerius Law School,Daycare,53.55999730886004,9.984201192855835,1800,"{'type': 'Point', 'coordinates': [53.55999730886004, 9.984201192855835]}",Hamburg,Nursery School
81,Kinderladen Murmel e.V.,Nursery School,53.558287468144705,9.982548139358972,1734,"{'type': 'Point', 'coordinates': [53.558287468144705, 9.982548139358972]}",Hamburg,Nursery School
82,Kita Sternipark Goethestrasse,Nursery School,53.552717,9.940072,1575,"{'type': 'Point', 'coordinates': [53.552717, 9.940072]}",Hamburg,Nursery School
83,Mottenkiste KOZA,Nursery School,53.553373,9.926547,2273,"{'type': 'Point', 'coordinates': [53.553373, 9.926547]}",Hamburg,Nursery School
84,Karo Kids,Nursery School,53.559873,9.973,1078,"{'type': 'Point', 'coordinates': [53.559873, 9.973]}",Hamburg,Nursery School
85,Kinderladen Rombergstraße,Nursery School,53.577899,9.948033,1820,"{'type': 'Point', 'coordinates': [53.577899, 9.948033]}",Hamburg,Nursery School
86,Kindergarten Maximum,Nursery School,53.553872,9.954881,973,"{'type': 'Point', 'coordinates': [53.553872, 9.954881]}",Hamburg,Nursery School
87,Kindergarten St. Petri Altona,Nursery School,53.549003,9.939001,1929,"{'type': 'Point', 'coordinates': [53.549003, 9.939001]}",Hamburg,Nursery School
88,Panama Kids,Nursery School,53.56556318094664,9.981703585017337,1649,"{'type': 'Point', 'coordinates': [53.56556318094664, 9.981703585017337]}",Hamburg,Nursery School
89,Kita Sillemstrasse,Nursery School,53.5758569832732,9.946621494483884,1645,"{'type': 'Point', 'coordinates': [53.5758569832732, 9.946621494483884]}",Hamburg,Nursery School
90,Wolkenzwerge,Nursery School,53.553968559865915,9.984408847705048,2028,"{'type': 'Point', 'coordinates': [53.553968559865915, 9.984408847705048]}",Hamburg,Nursery School
91,Kindergarten Gängeviertel,Nursery School,53.55566060803343,9.980317789134903,1701,"{'type': 'Point', 'coordinates': [53.55566060803343, 9.980317789134903]}",Hamburg,Nursery School
92,Kita Villa Vivendi,Nursery School,53.55954157229842,9.948805837379808,651,"{'type': 'Point', 'coordinates': [53.55954157229842, 9.948805837379808]}",Hamburg,Nursery School
93,Kita Wi Wa Wuschel,Nursery School,53.560187,9.952753,395,"{'type': 'Point', 'coordinates': [53.560187, 9.952753]}",Hamburg,Nursery School
94,Tobekatzen e.V.,Nursery School,53.575869772397,9.965017052482906,1573,"{'type': 'Point', 'coordinates': [53.575869772397, 9.965017052482906]}",Hamburg,Nursery School
95,Kinderclub Chamäleon,Nursery School,53.555457460935436,9.945839035914897,1090,"{'type': 'Point', 'coordinates': [53.555457460935436, 9.945839035914897]}",Hamburg,Nursery School
96,Kita Scheplerstrasse,Daycare,53.55493289883611,9.954444471689131,863,"{'type': 'Point', 'coordinates': [53.55493289883611, 9.954444471689131]}",Hamburg,Preschool
97,Kita Wrangelstraße,Daycare,53.582225875889414,9.967549989982956,2298,"{'type': 'Point', 'coordinates': [53.582225875889414, 9.967549989982956]}",Hamburg,Preschool
98,Kita Tornquiststraße,Daycare,53.57235635371662,9.955960223241197,1100,"{'type': 'Point', 'coordinates': [53.57235635371662, 9.955960223241197]}",Hamburg,Preschool
99,Kita Zauberzeit,Daycare,53.56813324428709,9.955557798262417,637,"{'type': 'Point', 'coordinates': [53.56813324428709, 9.955557798262417]}",Hamburg,Preschool
100,KiTa Markusstrasse,Daycare,53.55135958328112,9.979220742525824,1907,"{'type': 'Point', 'coordinates': [53.55135958328112, 9.979220742525824]}",Hamburg,Preschool
101,kita emilienstrasse,Daycare,53.57373099411165,9.9530237021497,1281,"{'type': 'Point', 'coordinates': [53.57373099411165, 9.9530237021497]}",Hamburg,Preschool
102,Kita Monetastrasse,Daycare,53.569766,9.976537,1507,"{'type': 'Point', 'coordinates': [53.569766, 9.976537]}",Hamburg,Preschool
103,KiTa Zeiseweg,Daycare,53.55910680998118,9.945367540635045,874,"{'type': 'Point', 'coordinates': [53.55910680998118, 9.945367540635045]}",Hamburg,Preschool
104,Ganztagsgrundschule Sternschanze,Elementary School,53.5641394883162,9.964957651002257,538,"{'type': 'Point', 'coordinates': [53.5641394883162, 9.964957651002257]}",Hamburg,Elementary School
105,Grundschule Kielortallee,Elementary School,53.57191873098372,9.974319315763044,1537,"{'type': 'Point', 'coordinates': [53.57191873098372, 9.974319315763044]}",Hamburg,Elementary School
106,Grundschule St. Pauli,Elementary School,53.54738381290249,9.95882749557495,1685,"{'type': 'Point', 'coordinates': [53.54738381290249, 9.95882749557495]}",Hamburg,Elementary School
107,Grundschule Rellinger Straße,Elementary School,53.574367703370825,9.942457694923357,1645,"{'type': 'Point', 'coordinates': [53.574367703370825, 9.942457694923357]}",Hamburg,Elementary School
108,Ganztagsschule St. Pauli,Elementary School,53.547587,9.959339,1665,"{'type': 'Point', 'coordinates': [53.547587, 9.959339]}",Hamburg,Elementary School
109,Grundschule Brehmweg,Elementary School,53.58436716121573,9.940780912233468,2667,"{'type': 'Point', 'coordinates': [53.58436716121573, 9.940780912233468]}",Hamburg,Elementary School
110,Ganztagsgrundschule Sternschanze,Elementary School,53.55963009018807,9.966152082958148,666,"{'type': 'Point', 'coordinates': [53.55963009018807, 9.966152082958148]}",Hamburg,Elementary School
111,Louise Schröder Schule,College Classroom,53.553776183370964,9.949758239590617,1091,"{'type': 'Point', 'coordinates': [53.553776183370964, 9.949758239590617]}",Hamburg,Elementary School
112,Grundschule Tornquiststraße,Elementary School,53.57349225868973,9.953261306229392,1252,"{'type': 'Point', 'coordinates': [53.57349225868973, 9.953261306229392]}",Hamburg,Elementary School
113,grundschule hoheluft,Elementary School,53.58164368232666,9.967810847689252,2241,"{'type': 'Point', 'coordinates': [53.58164368232666, 9.967810847689252]}",Hamburg,Elementary School
114,Grundschule Lutterothstraße,Elementary School,53.5810810838406,9.952765210589357,2090,"{'type': 'Point', 'coordinates': [53.5810810838406, 9.952765210589357]}",Hamburg,Elementary School
115,Astrid Lindgren Grundschule,Elementary School,53.57228648046505,9.968399545101484,1313,"{'type': 'Point', 'coordinates': [53.57228648046505, 9.968399545101484]}",Hamburg,Elementary School
116,Katholische Schule am Weiher,Elementary School,53.57748681299683,9.95829105377197,1669,"{'type': 'Point', 'coordinates': [53.57748681299683, 9.95829105377197]}",Hamburg,Elementary School
117,Wahllokal 21301 (BTW2017),Elementary School,53.555025,9.932141,1860,"{'type': 'Point', 'coordinates': [53.555025, 9.932141]}",Hamburg,Elementary School
118,ganztag schule,Elementary School,53.548105,9.959443,1608,"{'type': 'Point', 'coordinates': [53.548105, 9.959443]}",Hamburg,Elementary School
119,Avocado Store GmbH,Miscellaneous Shop,53.55688730642383,9.961509704589844,683,"{'type': 'Point', 'coordinates': [53.55688730642383, 9.961509704589844]}",Hamburg,Tech Startup
120,MIKESTAR,Tech Startup,53.55877843181767,9.984665377580978,1856,"{'type': 'Point', 'coordinates': [53.55877843181767, 9.984665377580978]}",Hamburg,Tech Startup
121,cony.io hh_1,Tech Startup,53.55933,9.947204,755,"{'type': 'Point', 'coordinates': [53.55933, 9.947204]}",Hamburg,Tech Startup
122,GlooNation,Tech Startup,53.571562616106206,9.948334034726956,1170,"{'type': 'Point', 'coordinates': [53.571562616106206, 9.948334034726956]}",Hamburg,Tech Startup
123,Graylog HQ,Tech Startup,53.55480209932871,9.979713135728709,1711,"{'type': 'Point', 'coordinates': [53.55480209932871, 9.979713135728709]}",Hamburg,Tech Startup
124,Anywhere mobile GmbH,Tech Startup,53.55477,9.950352,975,"{'type': 'Point', 'coordinates': [53.55477, 9.950352]}",Hamburg,Tech Startup
125,Rudi's und Waldi's Office,Tech Startup,53.560169371992544,9.971680641174316,985,"{'type': 'Point', 'coordinates': [53.560169371992544, 9.971680641174316]}",Hamburg,Tech Startup
126,FWD.IO,Tech Startup,53.560950763184664,9.967242100167995,679,"{'type': 'Point', 'coordinates': [53.560950763184664, 9.967242100167995]}",Hamburg,Tech Startup
127,Sofatronic,Tech Startup,53.56304883956909,9.926324486732483,2048,"{'type': 'Point', 'coordinates': [53.56304883956909, 9.926324486732483]}",Hamburg,Tech Startup
128,Eight Days A Week,Tech Startup,53.552406014241754,9.95688606271948,1123,"{'type': 'Point', 'coordinates': [53.552406014241754, 9.95688606271948]}",Hamburg,Tech Startup
129,Social Strategies,Tech Startup,53.561030165519774,9.967223819055906,676,"{'type': 'Point', 'coordinates': [53.561030165519774, 9.967223819055906]}",Hamburg,Tech Startup
130,Triboox,Tech Startup,53.54970752198097,9.93623683512791,1991,"{'type': 'Point', 'coordinates': [53.54970752198097, 9.93623683512791]}",Hamburg,Tech Startup
131,Oracle Hospitality Cruise,Tech Startup,53.556324696701445,9.926963839846543,2120,"{'type': 'Point', 'coordinates': [53.556324696701445, 9.926963839846543]}",Hamburg,Tech Startup
132,fairsprechen,Tech Startup,53.577413617125615,9.95609617082645,1662,"{'type': 'Point', 'coordinates': [53.577413617125615, 9.95609617082645]}",Hamburg,Tech Startup
133,HealthCo Gmbh,Tech Startup,53.55525,9.986208,2074,"{'type': 'Point', 'coordinates': [53.55525, 9.986208]}",Hamburg,Tech Startup
134,VB:34,Tech Startup,53.54701569042044,9.974041314874144,2048,"{'type': 'Point', 'coordinates': [53.54701569042044, 9.974041314874144]}",Hamburg,Tech Startup
135,Goodtrip HQ,Tech Startup,53.55610194379826,9.933750676298631,1712,"{'type': 'Point', 'coordinates': [53.55610194379826, 9.933750676298631]}",Hamburg,Tech Startup
136,Yanus Verlag,Tech Startup,53.558342,9.967793,834,"{'type': 'Point', 'coordinates': [53.558342, 9.967793]}",Hamburg,Tech Startup
137,Talentformation HQ,Tech Startup,53.58007049560547,9.956079483032227,1957,"{'type': 'Point', 'coordinates': [53.58007049560547, 9.956079483032227]}",Hamburg,Tech Startup
138,Nerdindustries,Tech Startup,53.57883080716464,9.946013679139408,1965,"{'type': 'Point', 'coordinates': [53.57883080716464, 9.946013679139408]}",Hamburg,Tech Startup
139,Testroom,Tech Startup,53.554711060298146,9.97857866492966,1652,"{'type': 'Point', 'coordinates': [53.554711060298146, 9.97857866492966]}",Hamburg,Tech Startup
140,Hootsuite,Tech Startup,53.55205,9.984582,2146,"{'type': 'Point', 'coordinates': [53.55205, 9.984582]}",Hamburg,Tech Startup
141,Wechselwild,Tech Startup,53.56118102533036,9.966538846492767,628,"{'type': 'Point', 'coordinates': [53.56118102533036, 9.966538846492767]}",Hamburg,Tech Startup
142,metrigo HQ,Tech Startup,53.56193828913369,9.96781233796702,697,"{'type': 'Point', 'coordinates': [53.56193828913369, 9.96781233796702]}",Hamburg,Tech Startup
143,Playground Of Thoughts,Tech Startup,53.572935,9.956438,1163,"{'type': 'Point', 'coordinates': [53.572935, 9.956438]}",Hamburg,Tech Startup
144,Digital Pioneers,Tech Startup,53.5439075032697,9.947812452873917,2162,"{'type': 'Point', 'coordinates': [53.5439075032697, 9.947812452873917]}",Hamburg,Tech Startup
145,TRG Office Hamburg,Office,53.54434655562103,9.947585130129804,2120,"{'type': 'Point', 'coordinates': [53.54434655562103, 9.947585130129804]}",Hamburg,Tech Startup
146,Smaato,Tech Startup,53.5561967975047,9.983561035314779,1872,"{'type': 'Point', 'coordinates': [53.5561967975047, 9.983561035314779]}",Hamburg,Tech Startup
147,brandpfeil,Tech Startup,53.55723211450271,9.965442079706708,796,"{'type': 'Point', 'coordinates': [53.55723211450271, 9.965442079706708]}",Hamburg,Tech Startup
148,Onlinehelp24,Tech Startup,53.557492755147074,9.961724281311035,629,"{'type': 'Point', 'coordinates': [53.557492755147074, 9.961724281311035]}",Hamburg,Tech Startup
179,Gleis 11/12,Platform,53.55319605239481,9.935550744959803,1772,"{'type': 'Point', 'coordinates': [53.55319605239481, 9.935550744959803]}",Hamburg,Train Station
180,Autozug-Terminal Hamburg,Platform,53.55407663625435,9.93586778640747,1699,"{'type': 'Point', 'coordinates': [53.55407663625435, 9.93586778640747]}",Hamburg,Train Station
181,Bahnhof Hamburg-Altona,Train Station,53.55241607890848,9.935052338490426,1850,"{'type': 'Point', 'coordinates': [53.55241607890848, 9.935052338490426]}",Hamburg,Train Station
182,Gleis 7/8,Platform,53.553209636013605,9.93495436775073,1803,"{'type': 'Point', 'coordinates': [53.553209636013605, 9.93495436775073]}",Hamburg,Train Station
183,Gleis 1/2 (S-Bahn),Platform,53.55262799029032,9.935167067167944,1830,"{'type': 'Point', 'coordinates': [53.55262799029032, 9.935167067167944]}",Hamburg,Train Station
184,Modellbahnanlage Im Bahnhof Altona,Train Station,53.552303,9.935166,1852,"{'type': 'Point', 'coordinates': [53.552303, 9.935166]}",Hamburg,Train Station
185,Gleis 9/10,Platform,53.552922996496235,9.935320615768433,1802,"{'type': 'Point', 'coordinates': [53.552922996496235, 9.935320615768433]}",Hamburg,Train Station
186,Craft Bier Bar Hamburg,Beer Bar,53.56340020530573,9.958881139755249,144,"{'type': 'Point', 'coordinates': [53.56340020530573, 9.958881139755249]}",Hamburg,Nightlife Spot
187,Unikat,Hookah Bar,53.56686479350386,9.981230985629246,1655,"{'type': 'Point', 'coordinates': [53.56686479350386, 9.981230985629246]}",Hamburg,Nightlife Spot
188,Paulaner's Am Großneumarkt,Beer Bar,53.55047256297075,9.980671840936813,2044,"{'type': 'Point', 'coordinates': [53.55047256297075, 9.980671840936813]}",Hamburg,Nightlife Spot
189,Astra Brauerei,Brewery,53.550198,9.956275,1371,"{'type': 'Point', 'coordinates': [53.550198, 9.956275]}",Hamburg,Nightlife Spot
190,Hafen Klub Hamburg e.V.,Bar,53.54577700431174,9.968621444338277,2006,"{'type': 'Point', 'coordinates': [53.54577700431174, 9.968621444338277]}",Hamburg,Nightlife Spot
191,Das Lokal,Beer Bar,53.575206,9.96617,1531,"{'type': 'Point', 'coordinates': [53.575206, 9.96617]}",Hamburg,Nightlife Spot
192,Café Seepavillon,Café,53.562374267224556,9.98190388083458,1626,"{'type': 'Point', 'coordinates': [53.562374267224556, 9.98190388083458]}",Hamburg,Nightlife Spot
193,Dock 3 Beachclub,Beach Bar,53.545915732568325,9.965578617802613,1925,"{'type': 'Point', 'coordinates': [53.545915732568325, 9.965578617802613]}",Hamburg,Nightlife Spot
194,Sportpub Tankstelle,Sports Bar,53.54807806750356,9.961227023733098,1626,"{'type': 'Point', 'coordinates': [53.54807806750356, 9.961227023733098]}",Hamburg,Nightlife Spot
195,Eier Carl,Pub,53.545274159991216,9.952233043925082,1946,"{'type': 'Point', 'coordinates': [53.545274159991216, 9.952233043925082]}",Hamburg,Nightlife Spot
196,Malto,Beer Bar,53.555468,9.942967,1229,"{'type': 'Point', 'coordinates': [53.555468, 9.942967]}",Hamburg,Nightlife Spot
197,The Chug Club Bar,Cocktail Bar,53.54818648918455,9.965179593563755,1676,"{'type': 'Point', 'coordinates': [53.54818648918455, 9.965179593563755]}",Hamburg,Nightlife Spot
198,Frank und Frei,Café,53.563091178655846,9.9653708048888,537,"{'type': 'Point', 'coordinates': [53.563091178655846, 9.9653708048888]}",Hamburg,Nightlife Spot
199,KorallBar,Pub,53.55118982323543,9.962333584775845,1302,"{'type': 'Point', 'coordinates': [53.55118982323543, 9.962333584775845]}",Hamburg,Nightlife Spot
200,BrewDog St. Pauli,Beer Bar,53.549649,9.96825,1603,"{'type': 'Point', 'coordinates': [53.549649, 9.96825]}",Hamburg,Nightlife Spot
201,Ufer,Wine Bar,53.57847745649046,9.974696754928706,2117,"{'type': 'Point', 'coordinates': [53.57847745649046, 9.974696754928706]}",Hamburg,Nightlife Spot
202,Thämers,German Restaurant,53.55080184789539,9.980618852608913,2018,"{'type': 'Point', 'coordinates': [53.55080184789539, 9.980618852608913]}",Hamburg,Nightlife Spot
203,Café Altamira,Tapas Restaurant,53.560050799934864,9.927427602126695,1993,"{'type': 'Point', 'coordinates': [53.560050799934864, 9.927427602126695]}",Hamburg,Nightlife Spot
204,Altes Mädchen,Gastropub,53.56315436484908,9.968030851306173,713,"{'type': 'Point', 'coordinates': [53.56315436484908, 9.968030851306173]}",Hamburg,Nightlife Spot
205,ÜberQuell,Brewery,53.546233178075205,9.958425164222717,1812,"{'type': 'Point', 'coordinates': [53.546233178075205, 9.958425164222717]}",Hamburg,Nightlife Spot
206,Goldfischglas,Cocktail Bar,53.562591665809265,9.964302253828944,463,"{'type': 'Point', 'coordinates': [53.562591665809265, 9.964302253828944]}",Hamburg,Nightlife Spot
207,Blockbräu,Brewery,53.545560631876654,9.969706535339355,2056,"{'type': 'Point', 'coordinates': [53.545560631876654, 9.969706535339355]}",Hamburg,Nightlife Spot
208,Rosi’s Bar,Bar,53.55036281225671,9.961334574765216,1377,"{'type': 'Point', 'coordinates': [53.55036281225671, 9.961334574765216]}",Hamburg,Nightlife Spot
209,Froggy's,Bar,53.566964,9.956989,497,"{'type': 'Point', 'coordinates': [53.566964, 9.956989]}",Hamburg,Nightlife Spot
210,H2O Bar,Hotel Bar,53.55587410657925,9.981961595069155,1789,"{'type': 'Point', 'coordinates': [53.55587410657925, 9.981961595069155]}",Hamburg,Nightlife Spot
211,Down Under,Bar,53.56413158401439,9.984101464201311,1781,"{'type': 'Point', 'coordinates': [53.56413158401439, 9.984101464201311]}",Hamburg,Nightlife Spot
212,Jolly Roger,Pub,53.55511934745184,9.964538750881111,950,"{'type': 'Point', 'coordinates': [53.55511934745184, 9.964538750881111]}",Hamburg,Nightlife Spot
213,Zur scharfen Ecke,Pub,53.54703685213982,9.963061275725341,1762,"{'type': 'Point', 'coordinates': [53.54703685213982, 9.963061275725341]}",Hamburg,Nightlife Spot
214,StrandPauli,Beach Bar,53.546010797059665,9.962032975184897,1862,"{'type': 'Point', 'coordinates': [53.546010797059665, 9.962032975184897]}",Hamburg,Nightlife Spot
215,Möwe Sturzflug,Cocktail Bar,53.552326205427335,9.965133454246926,1245,"{'type': 'Point', 'coordinates': [53.552326205427335, 9.965133454246926]}",Hamburg,Nightlife Spot
216,Jim Burrito's Cantina,Burrito Place,53.55993204408008,9.96361114743962,505,"{'type': 'Point', 'coordinates': [53.55993204408008, 9.96361114743962]}",Hamburg,Vegetarian / Vegan Restaurant
217,Kjeks,Donut Shop,53.562409,9.965533,544,"{'type': 'Point', 'coordinates': [53.562409, 9.965533]}",Hamburg,Vegetarian / Vegan Restaurant
218,Citta Vegan House,Vegetarian / Vegan Restaurant,53.575988,9.953367,1523,"{'type': 'Point', 'coordinates': [53.575988, 9.953367]}",Hamburg,Vegetarian / Vegan Restaurant
219,ZeitRaum,Café,53.579976605493094,9.942539372791044,2176,"{'type': 'Point', 'coordinates': [53.579976605493094, 9.942539372791044]}",Hamburg,Vegetarian / Vegan Restaurant
220,Lam Vegan,Vegetarian / Vegan Restaurant,53.567235,9.968932,932,"{'type': 'Point', 'coordinates': [53.567235, 9.968932]}",Hamburg,Vegetarian / Vegan Restaurant
221,Apple & Eve,Vegetarian / Vegan Restaurant,53.564257,9.965339,566,"{'type': 'Point', 'coordinates': [53.564257, 9.965339]}",Hamburg,Vegetarian / Vegan Restaurant
222,Apple & Eve Vegan Restaurant,Vegetarian / Vegan Restaurant,53.56417,9.965703,585,"{'type': 'Point', 'coordinates': [53.56417, 9.965703]}",Hamburg,Vegetarian / Vegan Restaurant
223,Oses Cig Köfte,Cigkofte Place,53.556565,9.966712,907,"{'type': 'Point', 'coordinates': [53.556565, 9.966712]}",Hamburg,Vegetarian / Vegan Restaurant
224,kurkuma,Vegetarian / Vegan Restaurant,53.578126,9.942609,1992,"{'type': 'Point', 'coordinates': [53.578126, 9.942609]}",Hamburg,Vegetarian / Vegan Restaurant
225,Piccolo Paradiso,Vegetarian / Vegan Restaurant,53.55143254568645,9.980786234236147,1982,"{'type': 'Point', 'coordinates': [53.55143254568645, 9.980786234236147]}",Hamburg,Vegetarian / Vegan Restaurant
226,Vabiou‘s,Organic Grocery,53.552563,9.956732,1106,"{'type': 'Point', 'coordinates': [53.552563, 9.956732]}",Hamburg,Vegetarian / Vegan Restaurant
227,Fritzhabib,Vegetarian / Vegan Restaurant,53.555412,9.928644,2052,"{'type': 'Point', 'coordinates': [53.555412, 9.928644]}",Hamburg,Vegetarian / Vegan Restaurant
228,in guter Gesellschaft,Café,53.5584914007656,9.967058905880176,784,"{'type': 'Point', 'coordinates': [53.5584914007656, 9.967058905880176]}",Hamburg,Vegetarian / Vegan Restaurant
229,Cafe Katzentempel,Café,53.566967,9.96853,893,"{'type': 'Point', 'coordinates': [53.566967, 9.96853]}",Hamburg,Vegetarian / Vegan Restaurant
230,Happenpappen,Vegetarian / Vegan Restaurant,53.557484,9.970221,1020,"{'type': 'Point', 'coordinates': [53.557484, 9.970221]}",Hamburg,Vegetarian / Vegan Restaurant
231,Gopalam,Indian Restaurant,53.57086496537005,9.978391478569911,1676,"{'type': 'Point', 'coordinates': [53.57086496537005, 9.978391478569911]}",Hamburg,Vegetarian / Vegan Restaurant
232,Nasch,Vegetarian / Vegan Restaurant,53.55552820181528,9.984067082405089,1932,"{'type': 'Point', 'coordinates': [53.55552820181528, 9.984067082405089]}",Hamburg,Vegetarian / Vegan Restaurant
233,Loving Hut,Vegetarian / Vegan Restaurant,53.55164624655542,9.980434668815203,1949,"{'type': 'Point', 'coordinates': [53.55164624655542, 9.980434668815203]}",Hamburg,Vegetarian / Vegan Restaurant
234,Bistro V by Veganz,Vegetarian / Vegan Restaurant,53.561354,9.928032,1939,"{'type': 'Point', 'coordinates': [53.561354, 9.928032]}",Hamburg,Vegetarian / Vegan Restaurant
235,Jakob Baal,Vegetarian / Vegan Restaurant,53.5505599,9.9822125,2116,"{'type': 'Point', 'coordinates': [53.5505599, 9.9822125]}",Hamburg,Vegetarian / Vegan Restaurant
236,café faux vau,Vegetarian / Vegan Restaurant,53.561522,9.92733,1984,"{'type': 'Point', 'coordinates': [53.561522, 9.92733]}",Hamburg,Vegetarian / Vegan Restaurant
237,Vincent Vegan - the base,Vegetarian / Vegan Restaurant,53.561885,9.926743,2021,"{'type': 'Point', 'coordinates': [53.561885, 9.926743]}",Hamburg,Vegetarian / Vegan Restaurant
238,happenhappen,Vegetarian / Vegan Restaurant,53.577606,9.940836,2003,"{'type': 'Point', 'coordinates': [53.577606, 9.940836]}",Hamburg,Vegetarian / Vegan Restaurant
239,Masri,Vegetarian / Vegan Restaurant,53.570689,9.961022,944,"{'type': 'Point', 'coordinates': [53.570689, 9.961022]}",Hamburg,Vegetarian / Vegan Restaurant
240,Veg Out!,Vegetarian / Vegan Restaurant,53.555577,9.928675,2043,"{'type': 'Point', 'coordinates': [53.555577, 9.928675]}",Hamburg,Vegetarian / Vegan Restaurant
241,fairy food,Vegetarian / Vegan Restaurant,53.561238,9.927605,1968,"{'type': 'Point', 'coordinates': [53.561238, 9.927605]}",Hamburg,Vegetarian / Vegan Restaurant
242,Feldstern,Pub,53.55796479006157,9.967375375985771,835,"{'type': 'Point', 'coordinates': [53.55796479006157, 9.967375375985771]}",Hamburg,Vegetarian / Vegan Restaurant
243,#thebase,Vegetarian / Vegan Restaurant,53.56178654752804,9.927209789428543,1991,"{'type': 'Point', 'coordinates': [53.56178654752804, 9.927209789428543]}",Hamburg,Vegetarian / Vegan Restaurant
244,Azeitona,Falafel Restaurant,53.5587919447077,9.965222589521845,666,"{'type': 'Point', 'coordinates': [53.5587919447077, 9.965222589521845]}",Hamburg,Vegetarian / Vegan Restaurant
245,Cats Only,Veterinarian,53.57149376393242,9.958649931912682,1005,"{'type': 'Point', 'coordinates': [53.57149376393242, 9.958649931912682]}",Hamburg,Veterinarian
246,Tierarzpraxis U Lutterothstraße,Veterinarian,53.583291,9.946937,2413,"{'type': 'Point', 'coordinates': [53.583291, 9.946937]}",Hamburg,Veterinarian
247,Tierärztin + Heilpraktikerin Petra Büsken,Veterinarian,53.56591949731875,9.977918209265592,1415,"{'type': 'Point', 'coordinates': [53.56591949731875, 9.977918209265592]}",Hamburg,Veterinarian
248,Tierärztin Inga Lösing,Veterinarian,53.555393,9.9277315,2109,"{'type': 'Point', 'coordinates': [53.555393, 9.9277315]}",Hamburg,Veterinarian
249,"Tierarztpraxis Rüschoff, Christian, Staack",Veterinarian,53.549203,9.932743,2197,"{'type': 'Point', 'coordinates': [53.549203, 9.932743]}",Hamburg,Veterinarian
250,Smartvet Tierarztpraxis,Veterinarian,53.57636287633043,9.93802655135083,2001,"{'type': 'Point', 'coordinates': [53.57636287633043, 9.93802655135083]}",Hamburg,Veterinarian
251,Hamburger Tierspital,Veterinarian,53.577131972205486,9.971213919556904,1870,"{'type': 'Point', 'coordinates': [53.577131972205486, 9.971213919556904]}",Hamburg,Veterinarian
252,Tierarztpraxis Dr. B. Rüschoff und Dr. B. Christian,Veterinarian,53.549057,9.936427,2035,"{'type': 'Point', 'coordinates': [53.549057, 9.936427]}",Hamburg,Veterinarian
253,Dr. med. vet. Dagmar H. Vogel,Veterinarian,53.574020889321474,9.96274542651263,1332,"{'type': 'Point', 'coordinates': [53.574020889321474, 9.96274542651263]}",Hamburg,Veterinarian
254,Tierarztpraxis Dr. Vogel,Veterinarian,53.573863,9.962773,1315,"{'type': 'Point', 'coordinates': [53.573863, 9.962773]}",Hamburg,Veterinarian
255,Tierklinik,Veterinarian,53.5768,9.97142,1845,"{'type': 'Point', 'coordinates': [53.5768, 9.97142]}",Hamburg,Veterinarian
256,Milli & Mika,Pet Service,53.567979208871584,9.960959283897346,656,"{'type': 'Point', 'coordinates': [53.567979208871584, 9.960959283897346]}",Hamburg,Pet Service
257,Karo Köter,Pet Service,53.558273,9.971566,1054,"{'type': 'Point', 'coordinates': [53.558273, 9.971566]}",Hamburg,Pet Service
258,Das Futterhaus,Pet Service,53.55264167185387,9.93195375091336,2003,"{'type': 'Point', 'coordinates': [53.55264167185387, 9.93195375091336]}",Hamburg,Pet Service
259,DAS FUTTERHAUS,Pet Store,53.576298981372226,9.937482211619788,2018,"{'type': 'Point', 'coordinates': [53.576298981372226, 9.937482211619788]}",Hamburg,Pet Service
260,Frappudel,Pet Service,53.55815,9.944354,983,"{'type': 'Point', 'coordinates': [53.55815, 9.944354]}",Hamburg,Pet Service
261,Waschsalon für alle Felle,Pet Service,53.579719,9.967615,2034,"{'type': 'Point', 'coordinates': [53.579719, 9.967615]}",Hamburg,Pet Service
262,Nageltier,Pet Service,53.55362514141241,9.957429630767876,987,"{'type': 'Point', 'coordinates': [53.55362514141241, 9.957429630767876]}",Hamburg,Pet Service
263,Wauzisitter,Pet Service,53.580699,9.946621,2145,"{'type': 'Point', 'coordinates': [53.580699, 9.946621]}",Hamburg,Pet Service
264,Tierärztin Dr. Imke Voth,Pet Service,53.568572998046875,9.981362342834473,1728,"{'type': 'Point', 'coordinates': [53.568572998046875, 9.981362342834473]}",Hamburg,Pet Service
265,Poodlewohl,Pet Store,53.56646886653553,9.951728073030466,575,"{'type': 'Point', 'coordinates': [53.56646886653553, 9.951728073030466]}",Hamburg,Pet Store
266,Otto,Pet Store,53.566809,9.952481,575,"{'type': 'Point', 'coordinates': [53.566809, 9.952481]}",Hamburg,Pet Store
267,Aquarium Eimsbüttel,Pet Store,53.57224060341076,9.97860265394608,1777,"{'type': 'Point', 'coordinates': [53.57224060341076, 9.97860265394608]}",Hamburg,Pet Store
268,Hundeladen,Pet Store,53.55022720374325,9.96229593782073,1405,"{'type': 'Point', 'coordinates': [53.55022720374325, 9.96229593782073]}",Hamburg,Pet Store
269,Tierbar,Pet Store,53.57979272146719,9.966766834259033,2024,"{'type': 'Point', 'coordinates': [53.57979272146719, 9.966766834259033]}",Hamburg,Pet Store
270,Wildhagen,Pet Store,53.55325,9.982395,1952,"{'type': 'Point', 'coordinates': [53.55325, 9.982395]}",Hamburg,Pet Store
271,ZgH Großer Konfi am Dammtorwall,Pet Store,53.55724,9.985905,1979,"{'type': 'Point', 'coordinates': [53.55724, 9.985905]}",Hamburg,Pet Store
272,Fressnapf XXL,Pet Store,53.56549827421128,9.927684749231043,1986,"{'type': 'Point', 'coordinates': [53.56549827421128, 9.927684749231043]}",Hamburg,Pet Store
273,DAS FUTTERHAUS,Pet Store,53.576298981372226,9.937482211619788,2018,"{'type': 'Point', 'coordinates': [53.576298981372226, 9.937482211619788]}",Hamburg,Pet Store
274,Komodo Digital,Design Studio,54.96994712563321,-1.6176502780226871,116,"{'type': 'Point', 'coordinates': [54.96994712563321, -1.6176502780226871]}",Newcastle,Design Studio
275,Baltic 39 Studios,Design Studio,54.971929,-1.612978,449,"{'type': 'Point', 'coordinates': [54.971929, -1.612978]}",Newcastle,Design Studio
276,Will Howe Creative,Design Studio,54.988073974387355,-1.6051563537789573,2278,"{'type': 'Point', 'coordinates': [54.988073974387355, -1.6051563537789573]}",Newcastle,Design Studio
277,Foundry34,Design Studio,54.98308844843246,-1.6044867561070144,1789,"{'type': 'Point', 'coordinates': [54.98308844843246, -1.6044867561070144]}",Newcastle,Design Studio
278,Northern Print,Art Gallery,54.9752968183848,-1.593496305849402,1699,"{'type': 'Point', 'coordinates': [54.9752968183848, -1.593496305849402]}",Newcastle,Design Studio
279,Printing.com,Design Studio,54.967967368896836,-1.621319237866355,257,"{'type': 'Point', 'coordinates': [54.967967368896836, -1.621319237866355]}",Newcastle,Design Studio
280,Bang on print,Design Studio,54.97031655033557,-1.6159489261744966,191,"{'type': 'Point', 'coordinates': [54.97031655033557, -1.6159489261744966]}",Newcastle,Design Studio
281,Peacock Carter Ltd,Design Studio,54.967010281821686,-1.5945609312578188,1489,"{'type': 'Point', 'coordinates': [54.967010281821686, -1.5945609312578188]}",Newcastle,Design Studio
282,Electrik Sheep,Design Studio,54.969819,-1.619147,140,"{'type': 'Point', 'coordinates': [54.969819, -1.619147]}",Newcastle,Design Studio
283,Akenside Studios,Design Studio,54.9697,-1.609137,550,"{'type': 'Point', 'coordinates': [54.9697, -1.609137]}",Newcastle,Design Studio
284,Magnetic Print and Design,Design Studio,54.97256441571117,-1.6089606285095215,688,"{'type': 'Point', 'coordinates': [54.97256441571117, -1.6089606285095215]}",Newcastle,Design Studio
285,Squidgy Designs,Design Studio,54.969839251195715,-1.6238414740511176,409,"{'type': 'Point', 'coordinates': [54.969839251195715, -1.6238414740511176]}",Newcastle,Design Studio
286,RASKL Design,Design Studio,54.974375,-1.592253,1732,"{'type': 'Point', 'coordinates': [54.974375, -1.592253]}",Newcastle,Design Studio
287,tempertemper Web Design Ltd.,Design Studio,54.968471,-1.612229,349,"{'type': 'Point', 'coordinates': [54.968471, -1.612229]}",Newcastle,Design Studio
288,Hunter Johnstone,Design Studio,54.97987747192383,-1.5983070135116577,1737,"{'type': 'Point', 'coordinates': [54.97987747192383, -1.5983070135116577]}",Newcastle,Design Studio
289,deadgood,Design Studio,54.97267150878906,-1.6092842817306519,679,"{'type': 'Point', 'coordinates': [54.97267150878906, -1.6092842817306519]}",Newcastle,Design Studio
290,CCP Games UK,Tech Startup,54.96488632677147,-1.607371842949401,793,"{'type': 'Point', 'coordinates': [54.96488632677147, -1.607371842949401]}",Newcastle,Design Studio
291,Saberlight Digital,Design Studio,54.967220306396484,-1.5948052406311035,1471,"{'type': 'Point', 'coordinates': [54.967220306396484, -1.5948052406311035]}",Newcastle,Design Studio
292,Enigma Interactive,Office,54.96802882899835,-1.609093839210092,554,"{'type': 'Point', 'coordinates': [54.96802882899835, -1.609093839210092]}",Newcastle,Design Studio
293,study room for,Preschool,54.978256,-1.607761,1217,"{'type': 'Point', 'coordinates': [54.978256, -1.607761]}",Newcastle,Preschool
294,Westgate Hill Primary School,Elementary School,54.974127111325885,-1.6366992459989023,1349,"{'type': 'Point', 'coordinates': [54.974127111325885, -1.6366992459989023]}",Newcastle,Elementary School
295,Wingrove Primary School,Elementary School,54.978863,-1.641887,1905,"{'type': 'Point', 'coordinates': [54.978863, -1.641887]}",Newcastle,Elementary School
296,Hawthorn Primary School,Elementary School,54.968738,-1.636659,1215,"{'type': 'Point', 'coordinates': [54.968738, -1.636659]}",Newcastle,Elementary School
297,Bede Community Primary,Elementary School,54.959485,-1.592504,1918,"{'type': 'Point', 'coordinates': [54.959485, -1.592504]}",Newcastle,Elementary School
298,Caedmon Community Primary School,Elementary School,54.953101,-1.605229,1929,"{'type': 'Point', 'coordinates': [54.953101, -1.605229]}",Newcastle,Elementary School
299,Moorside community primary school,Elementary School,54.97699757422019,-1.6355701362509227,1457,"{'type': 'Point', 'coordinates': [54.97699757422019, -1.6355701362509227]}",Newcastle,Elementary School
300,Dunston Riverside Community Primary School,Elementary School,54.95636917614797,-1.6453441184142878,2254,"{'type': 'Point', 'coordinates': [54.95636917614797, -1.6453441184142878]}",Newcastle,Elementary School
301,South Street Community Primary School,Elementary School,54.95319904747435,-1.5980247031607453,2150,"{'type': 'Point', 'coordinates': [54.95319904747435, -1.5980247031607453]}",Newcastle,Elementary School
302,EvaluAgent - i6 Business Centre,Tech Startup,54.97107,-1.620326,296,"{'type': 'Point', 'coordinates': [54.97107, -1.620326]}",Newcastle,Tech Startup
303,The Amazing Group,Tech Startup,54.97130508186489,-1.611417531967163,479,"{'type': 'Point', 'coordinates': [54.97130508186489, -1.611417531967163]}",Newcastle,Tech Startup
304,Givey HQ Newcastle,Tech Startup,54.970082,-1.617746,131,"{'type': 'Point', 'coordinates': [54.970082, -1.617746]}",Newcastle,Tech Startup
305,Matchchat HQ,Tech Startup,54.96983337402344,-1.6178795099258423,105,"{'type': 'Point', 'coordinates': [54.96983337402344, -1.6178795099258423]}",Newcastle,Tech Startup
306,Leaf Music,Tech Startup,54.967929,-1.624497,451,"{'type': 'Point', 'coordinates': [54.967929, -1.624497]}",Newcastle,Tech Startup
307,Tint Towers,Tech Startup,54.96967659500577,-1.6139545099033301,250,"{'type': 'Point', 'coordinates': [54.96967659500577, -1.6139545099033301]}",Newcastle,Tech Startup
308,The Roundhouse,Tech Startup,54.967682,-1.621263,268,"{'type': 'Point', 'coordinates': [54.967682, -1.621263]}",Newcastle,Tech Startup
309,Beatnode,Tech Startup,54.96842749485894,-1.6077856997500668,631,"{'type': 'Point', 'coordinates': [54.96842749485894, -1.6077856997500668]}",Newcastle,Tech Startup
310,Ki-Media,Tech Startup,54.97200399500226,-1.6184112438274696,349,"{'type': 'Point', 'coordinates': [54.97200399500226, -1.6184112438274696]}",Newcastle,Tech Startup
311,Amazing Towers,Tech Startup,54.9662550336138,-1.6033869981765747,957,"{'type': 'Point', 'coordinates': [54.9662550336138, -1.6033869981765747]}",Newcastle,Tech Startup
312,Buy.at,Office,54.97065538563751,-1.6124475002288818,385,"{'type': 'Point', 'coordinates': [54.97065538563751, -1.6124475002288818]}",Newcastle,Tech Startup
313,SoPost,Tech Startup,54.97103548976758,-1.6203530860699336,294,"{'type': 'Point', 'coordinates': [54.97103548976758, -1.6203530860699336]}",Newcastle,Tech Startup
314,Zerolight,Tech Startup,54.969619,-1.604692,831,"{'type': 'Point', 'coordinates': [54.969619, -1.604692]}",Newcastle,Tech Startup
315,band-x Media,Tech Startup,54.97311019180688,-1.6124930477756332,572,"{'type': 'Point', 'coordinates': [54.97311019180688, -1.6124930477756332]}",Newcastle,Tech Startup
316,Powerhouse Software,Tech Startup,54.981702,-1.609558,1515,"{'type': 'Point', 'coordinates': [54.981702, -1.609558]}",Newcastle,Tech Startup
317,Recite Me,Tech Startup,54.966251,-1.595957,1416,"{'type': 'Point', 'coordinates': [54.966251, -1.595957]}",Newcastle,Tech Startup
318,Cloud Data Service,Tech Startup,54.97108646487632,-1.6200757026672363,288,"{'type': 'Point', 'coordinates': [54.97108646487632, -1.6200757026672363]}",Newcastle,Tech Startup
319,ignite100 - The Studio,Tech Startup,54.972478176765975,-1.6049254804393522,904,"{'type': 'Point', 'coordinates': [54.972478176765975, -1.6049254804393522]}",Newcastle,Tech Startup
320,Moltin,Tech Startup,54.973489,-1.608465,777,"{'type': 'Point', 'coordinates': [54.973489, -1.608465]}",Newcastle,Tech Startup
321,HurstDEV HQ,Tech Startup,54.964252,-1.605896,911,"{'type': 'Point', 'coordinates': [54.964252, -1.605896]}",Newcastle,Tech Startup
322,Fluid Pixel Offices,Tech Startup,54.972700706950704,-1.6080609694643935,744,"{'type': 'Point', 'coordinates': [54.972700706950704, -1.6080609694643935]}",Newcastle,Tech Startup
323,Atlas HQ,Tech Startup,54.97055272017778,-1.612122264055366,397,"{'type': 'Point', 'coordinates': [54.97055272017778, -1.612122264055366]}",Newcastle,Tech Startup
324,ff! Head Office,Tech Startup,54.97522754417878,-1.6114492855875022,807,"{'type': 'Point', 'coordinates': [54.97522754417878, -1.6114492855875022]}",Newcastle,Tech Startup
325,Nosebleed Interactive,Tech Startup,54.97188702833001,-1.6422200202941895,1605,"{'type': 'Point', 'coordinates': [54.97188702833001, -1.6422200202941895]}",Newcastle,Tech Startup
326,Old media Towers,Tech Startup,54.97460882470729,-1.601729393005371,1198,"{'type': 'Point', 'coordinates': [54.97460882470729, -1.601729393005371]}",Newcastle,Tech Startup
327,The App Chaps,Tech Startup,54.96388067565385,-1.605699062347412,945,"{'type': 'Point', 'coordinates': [54.96388067565385, -1.605699062347412]}",Newcastle,Tech Startup
328,hedgehog lab,Tech Startup,54.9723442,-1.6051071,887,"{'type': 'Point', 'coordinates': [54.9723442, -1.6051071]}",Newcastle,Tech Startup
330,Starbucks,Coffee Shop,54.969435,-1.616766,81,"{'type': 'Point', 'coordinates': [54.969435, -1.616766]}",Newcastle,Coffee Shop
331,Starbucks,Coffee Shop,54.972522,-1.617541,403,"{'type': 'Point', 'coordinates': [54.972522, -1.617541]}",Newcastle,Coffee Shop
334,Starbucks,Coffee Shop,54.97478,-1.615004,675,"{'type': 'Point', 'coordinates': [54.97478, -1.615004]}",Newcastle,Coffee Shop
346,Starbucks,Coffee Shop,54.976985,-1.613368,940,"{'type': 'Point', 'coordinates': [54.976985, -1.613368]}",Newcastle,Coffee Shop
347,Starbucks,Coffee Shop,54.97426016548611,-1.622321871197673,667,"{'type': 'Point', 'coordinates': [54.97426016548611, -1.622321871197673]}",Newcastle,Coffee Shop
354,Starbucks,Coffee Shop,54.970542,-1.600355,1119,"{'type': 'Point', 'coordinates': [54.970542, -1.600355]}",Newcastle,Coffee Shop
359,Newcastle Central Railway Station (NCL),Train Station,54.96848569794475,-1.6173415167971168,49,"{'type': 'Point', 'coordinates': [54.96848569794475, -1.6173415167971168]}",Newcastle,Train Station
360,Platform 2,Platform,54.96844042926115,-1.6172645144488291,56,"{'type': 'Point', 'coordinates': [54.96844042926115, -1.6172645144488291]}",Newcastle,Train Station
361,Platform 4,Platform,54.968116055576694,-1.6165692872501791,110,"{'type': 'Point', 'coordinates': [54.968116055576694, -1.6165692872501791]}",Newcastle,Train Station
362,Long Stay Car Park,Train Station,54.96848711749249,-1.6171030715218615,57,"{'type': 'Point', 'coordinates': [54.96848711749249, -1.6171030715218615]}",Newcastle,Train Station
363,Platform 3,Platform,54.96839709100208,-1.6172541221222725,61,"{'type': 'Point', 'coordinates': [54.96839709100208, -1.6172541221222725]}",Newcastle,Train Station
364,Platform 1,Platform,54.96847014605542,-1.615824855005821,125,"{'type': 'Point', 'coordinates': [54.96847014605542, -1.615824855005821]}",Newcastle,Train Station
365,Platform 12,Platform,54.968261755787594,-1.6182014653451129,79,"{'type': 'Point', 'coordinates': [54.968261755787594, -1.6182014653451129]}",Newcastle,Train Station
366,Platform 10,Platform,54.968264,-1.618068,75,"{'type': 'Point', 'coordinates': [54.968264, -1.618068]}",Newcastle,Train Station
367,Platform 7,Platform,54.968001966307774,-1.61628373956545,132,"{'type': 'Point', 'coordinates': [54.968001966307774, -1.61628373956545]}",Newcastle,Train Station
368,Platform 6,Platform,54.96792311022943,-1.6171365631954446,113,"{'type': 'Point', 'coordinates': [54.96792311022943, -1.6171365631954446]}",Newcastle,Train Station
369,Manors Railway Station (MAS),Train Station,54.97284425155188,-1.605302887961489,902,"{'type': 'Point', 'coordinates': [54.97284425155188, -1.605302887961489]}",Newcastle,Train Station
370,Platform 1,Platform,54.97760009765625,-1.6143165826797485,991,"{'type': 'Point', 'coordinates': [54.97760009765625, -1.6143165826797485]}",Newcastle,Train Station
371,Platform 1,Platform,54.957832,-1.5883036,2243,"{'type': 'Point', 'coordinates': [54.957832, -1.5883036]}",Newcastle,Train Station
372,Platform 2,Platform,54.977364,-1.613441,979,"{'type': 'Point', 'coordinates': [54.977364, -1.613441]}",Newcastle,Train Station
373,Platform 2,Platform,54.96206119555039,-1.6043290292260932,1141,"{'type': 'Point', 'coordinates': [54.96206119555039, -1.6043290292260932]}",Newcastle,Train Station
374,The Underground Platform 1,Platform,54.97046661376953,-1.6024068593978882,988,"{'type': 'Point', 'coordinates': [54.97046661376953, -1.6024068593978882]}",Newcastle,Train Station
375,The Centurion,Bar,54.969117518006406,-1.616408320082125,82,"{'type': 'Point', 'coordinates': [54.969117518006406, -1.616408320082125]}",Newcastle,Nightlife Spot
376,Gunner Tavern,Pub,54.969061,-1.618081,33,"{'type': 'Point', 'coordinates': [54.969061, -1.618081]}",Newcastle,Nightlife Spot
377,Newcastle Tap,Pub,54.969505,-1.61571,140,"{'type': 'Point', 'coordinates': [54.969505, -1.61571]}",Newcastle,Nightlife Spot
378,The Victoria Comet,Bar,54.96920750082269,-1.6174837516712213,35,"{'type': 'Point', 'coordinates': [54.96920750082269, -1.6174837516712213]}",Newcastle,Nightlife Spot
379,The Mile Castle (Lloyd's No. 1 Bar),Bar,54.970219585550886,-1.6162108994592255,172,"{'type': 'Point', 'coordinates': [54.970219585550886, -1.6162108994592255]}",Newcastle,Nightlife Spot
380,Head of Steam,Bar,54.969520290428434,-1.6155256631584982,151,"{'type': 'Point', 'coordinates': [54.969520290428434, -1.6155256631584982]}",Newcastle,Nightlife Spot
381,BrewDog Newcastle,Beer Bar,54.969840150969624,-1.6096193037527584,523,"{'type': 'Point', 'coordinates': [54.969840150969624, -1.6096193037527584]}",Newcastle,Nightlife Spot
382,The Free Trade Inn,Pub,54.97118114680787,-1.5873594390561772,1951,"{'type': 'Point', 'coordinates': [54.97118114680787, -1.5873594390561772]}",Newcastle,Nightlife Spot
383,The Yard,Gay Bar,54.96724661757272,-1.6220659017562864,337,"{'type': 'Point', 'coordinates': [54.96724661757272, -1.6220659017562864]}",Newcastle,Nightlife Spot
384,Tyneside Cinema,Indie Movie Theater,54.97386874713539,-1.611925458244147,662,"{'type': 'Point', 'coordinates': [54.97386874713539, -1.611925458244147]}",Newcastle,Nightlife Spot
385,No 28,Bar,54.97337811806937,-1.6147243860766605,532,"{'type': 'Point', 'coordinates': [54.97337811806937, -1.6147243860766605]}",Newcastle,Nightlife Spot
386,The Bridge Hotel,Pub,54.968583789390046,-1.610310368291018,469,"{'type': 'Point', 'coordinates': [54.968583789390046, -1.610310368291018]}",Newcastle,Nightlife Spot
387,The Alchemist,Cocktail Bar,54.9735781224777,-1.6142403816233941,564,"{'type': 'Point', 'coordinates': [54.9735781224777, -1.6142403816233941]}",Newcastle,Nightlife Spot
388,Pitcher & Piano,Bar,54.97029103238662,-1.5996032926323693,1162,"{'type': 'Point', 'coordinates': [54.97029103238662, -1.5996032926323693]}",Newcastle,Nightlife Spot
389,The Quayside (Wetherspoon),Pub,54.967399200959136,-1.6101131200439938,509,"{'type': 'Point', 'coordinates': [54.967399200959136, -1.6101131200439938]}",Newcastle,Nightlife Spot
390,Oasis,Hookah Bar,54.968588827644396,-1.6205201068894226,187,"{'type': 'Point', 'coordinates': [54.968588827644396, -1.6205201068894226]}",Newcastle,Nightlife Spot
391,Lady Grey's,Pub,54.97272790476629,-1.611217111571325,591,"{'type': 'Point', 'coordinates': [54.97272790476629, -1.611217111571325]}",Newcastle,Nightlife Spot
392,Dog & Parrot,Pub,54.96848536151966,-1.6206600441319303,198,"{'type': 'Point', 'coordinates': [54.96848536151966, -1.6206600441319303]}",Newcastle,Nightlife Spot
393,Tyneside Bar Café,Bar,54.97398612636403,-1.6116334030795385,684,"{'type': 'Point', 'coordinates': [54.97398612636403, -1.6116334030795385]}",Newcastle,Nightlife Spot
394,The Bank,Gay Bar,54.96720769573847,-1.622218158475811,347,"{'type': 'Point', 'coordinates': [54.96720769573847, -1.622218158475811]}",Newcastle,Nightlife Spot
395,The Wobbly Duck,Pub,54.97433,-1.614484,637,"{'type': 'Point', 'coordinates': [54.97433, -1.614484]}",Newcastle,Nightlife Spot
396,Ernest,Bar,54.976620429982326,-1.5963480956992082,1609,"{'type': 'Point', 'coordinates': [54.976620429982326, -1.5963480956992082]}",Newcastle,Nightlife Spot
397,Red House,Bar,54.96871675142823,-1.6077283271364005,633,"{'type': 'Point', 'coordinates': [54.96871675142823, -1.6077283271364005]}",Newcastle,Nightlife Spot
398,Kiln,Pub,54.973271,-1.589325,1873,"{'type': 'Point', 'coordinates': [54.973271, -1.589325]}",Newcastle,Nightlife Spot
399,The Keel Row (Lloyd's No. 1 Bar),Pub,54.97238653364609,-1.6173985382232543,388,"{'type': 'Point', 'coordinates': [54.97238653364609, -1.6173985382232543]}",Newcastle,Nightlife Spot
400,The Town Mouse,Pub,54.977848682215615,-1.6121829236608303,1055,"{'type': 'Point', 'coordinates': [54.977848682215615, -1.6121829236608303]}",Newcastle,Nightlife Spot
401,The Holy Hobo,Bar,54.981499,-1.60589,1590,"{'type': 'Point', 'coordinates': [54.981499, -1.60589]}",Newcastle,Nightlife Spot
402,The Delta Lounge,Beer Bar,54.968422,-1.6130413,298,"{'type': 'Point', 'coordinates': [54.968422, -1.6130413]}",Newcastle,Nightlife Spot
403,Errant Brewery,Brewery,54.965904,-1.6203704,376,"{'type': 'Point', 'coordinates': [54.965904, -1.6203704]}",Newcastle,Nightlife Spot
404,Wylam Brewery,Brewery,54.986377956528614,-1.6164476086717376,1947,"{'type': 'Point', 'coordinates': [54.986377956528614, -1.6164476086717376]}",Newcastle,Nightlife Spot
405,Super Natural Kitchen,Vegetarian / Vegan Restaurant,54.97037485398181,-1.6160601009450695,192,"{'type': 'Point', 'coordinates': [54.97037485398181, -1.6160601009450695]}",Newcastle,Vegetarian / Vegan Restaurant
406,The Bohemian,Vegetarian / Vegan Restaurant,54.96975326538086,-1.6188877820968628,124,"{'type': 'Point', 'coordinates': [54.96975326538086, -1.6188877820968628]}",Newcastle,Vegetarian / Vegan Restaurant
407,Little Green,Vegetarian / Vegan Restaurant,54.98267,-1.5956113,2080,"{'type': 'Point', 'coordinates': [54.98267, -1.5956113]}",Newcastle,Vegetarian / Vegan Restaurant
408,Vegano,Vegetarian / Vegan Restaurant,54.969493,-1.623521,381,"{'type': 'Point', 'coordinates': [54.969493, -1.623521]}",Newcastle,Vegetarian / Vegan Restaurant
409,Junk It Up,Fast Food Restaurant,54.969818,-1.619098,138,"{'type': 'Point', 'coordinates': [54.969818, -1.619098]}",Newcastle,Vegetarian / Vegan Restaurant
410,Hungry Vegan,Food & Drink Shop,54.973887,-1.611301,687,"{'type': 'Point', 'coordinates': [54.973887, -1.611301]}",Newcastle,Vegetarian / Vegan Restaurant
411,Grumpy Panda,Vegetarian / Vegan Restaurant,54.960342,-1.6041641,1284,"{'type': 'Point', 'coordinates': [54.960342, -1.6041641]}",Newcastle,Vegetarian / Vegan Restaurant
412,Farplace Vegan Store,Vegetarian / Vegan Restaurant,54.971577,-1.617076,300,"{'type': 'Point', 'coordinates': [54.971577, -1.617076]}",Newcastle,Vegetarian / Vegan Restaurant
413,The Fat Hippo Underground,Burger Joint,54.9725349587578,-1.6120827707174206,538,"{'type': 'Point', 'coordinates': [54.9725349587578, -1.6120827707174206]}",Newcastle,Vegetarian / Vegan Restaurant
414,Karma Kitchen Café,Vegetarian / Vegan Restaurant,54.971146,-1.613615,358,"{'type': 'Point', 'coordinates': [54.971146, -1.613615]}",Newcastle,Vegetarian / Vegan Restaurant
415,Painted Elephant,Vegetarian / Vegan Restaurant,54.97484202113101,-1.610213455652714,814,"{'type': 'Point', 'coordinates': [54.97484202113101, -1.610213455652714]}",Newcastle,Vegetarian / Vegan Restaurant
416,Northumbria University Sport Central,Athletics & Sports,54.97831759371752,-1.606641929665313,1262,"{'type': 'Point', 'coordinates': [54.97831759371752, -1.606641929665313]}",Newcastle,Basketball Stadium
417,The Pet Stop,Pet Store,54.9743,-1.61128,725,"{'type': 'Point', 'coordinates': [54.9743, -1.61128]}",Newcastle,Pet Store
418,Big Shop,Pet Store,54.972352,-1.614438,435,"{'type': 'Point', 'coordinates': [54.972352, -1.614438]}",Newcastle,Pet Store
419,Little Pet Store,Pet Store,54.957333050494285,-1.605060767983981,1517,"{'type': 'Point', 'coordinates': [54.957333050494285, -1.605060767983981]}",Newcastle,Pet Store
420,Robinsons,Pet Store,54.97311463420963,-1.6149015201509542,500,"{'type': 'Point', 'coordinates': [54.97311463420963, -1.6149015201509542]}",Newcastle,Pet Store
